[
  {
    "source": "ticketmaster",
    "provider": "ticketmaster_discovery",
    "id": "rZ7HnEZ1Af43PN",
    "name": "TMU Bold Men's Hockey - 2025-26 Season Pass",
    "start_utc": "2025-10-02T22:15:00Z",
    "url": "https://www.ticketweb.ca/event/tmu-bold-mens-hockey-mattamy-athletic-centre-tickets/14552963",
    "venue": "Mattamy Athletic Centre",
    "city": "Toronto",
    "lat": 43.662302,
    "lon": -79.379993,
    "classification": "Sports / Hockey"
  },
  {
    "source": "ticketmaster",
    "provider": "ticketmaster_discovery",
    "id": "rZ7HnEZ1Af44CK",
    "name": "TMU Bold Women's Volleyball - 2025-26 Season Pass",
    "start_utc": "2025-10-23T22:00:00Z",
    "url": "https://www.ticketweb.ca/event/tmu-bold-womens-volleyball-mattamy-athletic-centre-tickets/14555393",
    "venue": "Mattamy Athletic Centre",
    "city": "Toronto",
    "lat": 43.662302,
    "lon": -79.379993,
    "classification": "Sports / Volleyball / Volleyball"
  },
  {
    "source": "ticketmaster",
    "provider": "ticketmaster_discovery",
    "id": "rZ7HnEZ1Af44GN",
    "name": "TMU Bold Men's Volleyball - 2025-26 Season Pass",
    "start_utc": "2025-10-23T22:00:00Z",
    "url": "https://www.ticketweb.ca/event/tmu-bold-mens-volleyball-mattamy-athletic-centre-tickets/14555323",
    "venue": "Mattamy Athletic Centre",
    "city": "Toronto",
    "lat": 43.662302,
    "lon": -79.379993,
    "classification": "Sports / Volleyball / Volleyball"
  },
  {
    "source": "ticketmaster",
    "provider": "ticketmaster_discovery",
    "id": "rZ7HnEZ1Af430N",
    "name": "TMU Bold Women's Hockey - 2025-26 Season Pass",
    "start_utc": "2025-10-24T16:00:00Z",
    "url": "https://www.ticketweb.ca/event/tmu-bold-womens-hockey-mattamy-athletic-centre-tickets/14552923",
    "venue": "Mattamy Athletic Centre",
    "city": "Toronto",
    "lat": 43.662302,
    "lon": -79.379993,
    "classification": "Sports / Hockey"
  },
  {
    "source": "ticketmaster",
    "provider": "ticketmaster_discovery",
    "id": "rZ7HnEZ1Af4f_K",
    "name": "TMU Bold Women's Basketball - 2025-26 Season Pass",
    "start_utc": "2025-10-31T16:00:00Z",
    "url": "https://www.ticketweb.ca/event/tmu-bold-womens-basketball-mattamy-athletic-centre-tickets/14554653",
    "venue": "Mattamy Athletic Centre",
    "city": "Toronto",
    "lat": 43.662302,
    "lon": -79.379993,
    "classification": "Sports / Basketball"
  },
  {
    "source": "ticketmaster",
    "provider": "ticketmaster_discovery",
    "id": "rZ7HnEZ1Af4fbS",
    "name": "TMU Bold Men's Basketball - 2025-26 Season Pass",
    "start_utc": "2025-10-31T16:00:00Z",
    "url": "https://www.ticketweb.ca/event/tmu-bold-mens-basketball-mattamy-athletic-centre-tickets/14554633",
    "venue": "Mattamy Athletic Centre",
    "city": "Toronto",
    "lat": 43.662302,
    "lon": -79.379993,
    "classification": "Sports / Basketball"
  },
  {
    "source": "ticketmaster",
    "provider": "ticketmaster_discovery",
    "id": "Za5ju3rKuqZDviASOIgsq6NbawFhz9hJSj",
    "name": "Eyes Wide Shut",
    "start_utc": "2025-12-31T23:30:00Z",
    "url": null,
    "venue": "TIFF Lightbox Cinema 4",
    "city": "Toronto",
    "lat": 43.646688,
    "lon": -79.39043,
    "classification": null
  },
  {
    "source": "ticketmaster",
    "provider": "ticketmaster_discovery",
    "id": "Za5ju3rKuqZDeUnte27T4e5l7kUU4SSUKF",
    "name": "No Other Choice (Korean w/e.s.t.)",
    "start_utc": "2025-12-31T23:45:00Z",
    "url": null,
    "venue": "TIFF Lightbox Cinema 3",
    "city": "Toronto",
    "lat": 43.646688,
    "lon": -79.39043,
    "classification": null
  },
  {
    "source": "ticketmaster",
    "provider": "ticketmaster_discovery",
    "id": "Za5ju3rKuqZBDEHdreZt7WFpZG7HMSd9C",
    "name": "The Voice of Hind Rajab",
    "start_utc": "2026-01-01T00:15:00Z",
    "url": null,
    "venue": "TIFF Lightbox Cinema 5",
    "city": "Toronto",
    "lat": 43.646688,
    "lon": -79.39043,
    "classification": null
  },
  {
    "source": "ticketmaster",
    "provider": "ticketmaster_discovery",
    "id": "Za5ju3rKuqZB3XBQyLSyv_5-4mCocMkPe",
    "name": "Toronto Raptors vs Denver Nuggets",
    "start_utc": "2026-01-01T00:30:00Z",
    "url": null,
    "venue": "Scotiabank Arena",
    "city": "Toronto",
    "lat": 43.644056,
    "lon": -79.378859,
    "classification": null
  },
  {
    "source": "ticketmaster",
    "provider": "ticketmaster_discovery",
    "id": "Za5ju3rKuqZBoYiB_ESt2CnvV9nft404G",
    "name": "Toronto Raptors vs Denver Nuggets",
    "start_utc": "2026-01-01T00:30:00Z",
    "url": null,
    "venue": "Scotiabank Arena",
    "city": "Toronto",
    "lat": 43.644056,
    "lon": -79.378859,
    "classification": null
  },
  {
    "source": "ticketmaster",
    "provider": "ticketmaster_discovery",
    "id": "Za5ju3rKuqZDvCoZYGR7qZFaQ1-5XpyG9U",
    "name": "Toronto Raptors vs Denver Nuggets",
    "start_utc": "2026-01-01T00:30:00Z",
    "url": null,
    "venue": "Scotiabank Arena",
    "city": "Toronto",
    "lat": 43.644056,
    "lon": -79.378859,
    "classification": null
  },
  {
    "source": "ticketmaster",
    "provider": "ticketmaster_discovery",
    "id": "Za5ju3rKuqZBEDeETmp4Z8htEcb1rvNDo",
    "name": "Stranger Things 5: The Finale",
    "start_utc": "2026-01-01T01:00:00Z",
    "url": null,
    "venue": "TIFF Lightbox Cinema 1",
    "city": "Toronto",
    "lat": 43.646688,
    "lon": -79.39043,
    "classification": null
  },
  {
    "source": "ticketmaster",
    "provider": "ticketmaster_discovery",
    "id": "Za5ju3rKuqZBqGUoKFXA6ZylaSYzS6E-j",
    "name": "Stranger Things 5: The Finale",
    "start_utc": "2026-01-01T01:00:00Z",
    "url": null,
    "venue": "TIFF Lightbox Cinema 2",
    "city": "Toronto",
    "lat": 43.646688,
    "lon": -79.39043,
    "classification": null
  },
  {
    "source": "ticketmaster",
    "provider": "ticketmaster_discovery",
    "id": "Za5ju3rKuqZBMwOnKEXt2950jFiJSixnn",
    "name": "Meeting Spaces",
    "start_utc": "2025-12-31T20:07:00Z",
    "url": null,
    "venue": "Rogers Centre",
    "city": "Toronto",
    "lat": 43.641642,
    "lon": -79.390043,
    "classification": null
  },
  {
    "source": "ticketmaster",
    "provider": "ticketmaster_discovery",
    "id": "Za5ju3rKuqZBrrzH5iltCBb7kQ20PDcwm",
    "name": "Toronto Raptors vs Denver Nuggets",
    "start_utc": "2026-01-01T00:30:00Z",
    "url": null,
    "venue": "General Use",
    "city": null,
    "lat": 43.643925,
    "lon": -79.378323,
    "classification": null
  },
  {
    "source": "ticketmaster",
    "provider": "ticketmaster_discovery",
    "id": "Za5ju3rKuqZBxBoJtrWoCnFb5IZAJqNQv",
    "name": "PA Starting Lineup Sheet vs Denver",
    "start_utc": "2026-01-01T00:30:00Z",
    "url": null,
    "venue": "General Use",
    "city": null,
    "lat": 43.643925,
    "lon": -79.378323,
    "classification": null
  },
  {
    "source": "ticketmaster",
    "provider": "ticketmaster_discovery",
    "id": "Za5ju3rKuqZDegpo6hqJ4unQSu7kZGC-JB",
    "name": "Courtside Access for Team Warmups vs Denver",
    "start_utc": "2026-01-01T00:30:00Z",
    "url": null,
    "venue": "General Use",
    "city": null,
    "lat": 43.643925,
    "lon": -79.378323,
    "classification": null
  }
]